location,report_date,location_type,data_field,data_field_code,value,unit,Country,Province,Year,Pregnant,Confirmed,Microcephaly,lon,lat
Argentina-Buenos_Aires,2016-05-14,province,cumulative_confirmed_local_cases,AR0001,0,cases,Argentina,Buenos_Aires,2016,No,Yes,No,-58.3815591,-34.6036844
Argentina-CABA,2016-06-18,province,cumulative_confirmed_local_cases,AR0001,0,cases,Argentina,CABA,2016,No,Yes,No,-58.3815591,-34.6036844
Argentina-Chaco,2016-03-19,province,cumulative_confirmed_local_cases,AR0001,0,cases,Argentina,Chaco,2016,No,Yes,No,-59.0243784,-27.4257175
Argentina-Chaco,2016-04-09,province,cumulative_probable_local_cases,AR0002,0,cases,Argentina,Chaco,2016,No,No,No,-59.0243784,-27.4257175
Argentina-Chubut,2016-04-29,province,cumulative_probable_imported_cases,AR0004,0,cases,Argentina,Chubut,2016,No,No,No,-65.1114818,-43.2934246
Argentina-Chubut,2016-04-16,province,cumulative_cases_discarded,AR0006,0,cases,Argentina,Chubut,2016,No,No,No,-65.1114818,-43.2934246
Argentina-Cordoba,2016-04-02,province,cumulative_cases_discarded,AR0006,0,cases,Argentina,Cordoba,2016,No,No,No,-64.1887761,-31.4200833
Argentina-Entre_Rios,2016-05-07,province,cumulative_cases_discarded,AR0006,10,cases,Argentina,Entre_Rios,2016,No,No,No,-60.4956461,-31.7746654
Argentina-La_Pampa,2016-04-29,province,cumulative_confirmed_local_cases,AR0001,0,cases,Argentina,La_Pampa,2016,No,Yes,No,-64.2839209,-36.6147573
Argentina-La_Pampa,2016-06-18,province,cumulative_confirmed_local_cases,AR0001,0,cases,Argentina,La_Pampa,2016,No,Yes,No,-64.2839209,-36.6147573
Argentina-Rio_Negro,2016-04-16,province,cumulative_confirmed_local_cases,AR0001,0,cases,Argentina,Rio_Negro,2016,No,Yes,No,-63.0266339,-40.8261434
Argentina-Salta,2016-06-06,province,cumulative_probable_imported_cases,AR0004,0,cases,Argentina,Salta,2016,No,No,No,-65.4231976,-24.7821269
Argentina-Santa_Fe,2016-05-22,province,cumulative_confirmed_imported_cases,AR0003,5,cases,Argentina,Santa_Fe,2016,No,Yes,No,-60.697294,-31.6106578
Argentina-Sgo_Del_Estero,2016-06-18,province,cumulative_cases_under_study,AR0005,6,cases,Argentina,Sgo_Del_Estero,2016,No,No,No,-64.264167,-27.7833574
Argentina-Sgo_Del_Estero,2016-04-16,province,cumulative_cases_under_study,AR0005,6,cases,Argentina,Sgo_Del_Estero,2016,No,No,No,-64.264167,-27.7833574
Argentina-Tierra_del_Fuego,2016-04-16,province,cumulative_probable_imported_cases,AR0004,0,cases,Argentina,Tierra_del_Fuego,2016,No,No,No,-68.3242061,-54.8053998
Brazil-Alagoas,2016-05-28,state,microcephaly_under_investigation,BR0001,63,cases,Brazil,Alagoas,2016,No,No,Yes,-36.7819505,-9.5713058
Brazil-Amapa,2016-04-23,state,microcephaly_confirmed,BR0002,4,cases,Brazil,Amapa,2016,No,Yes,Yes,-52.0029565,0.9019925
Brazil-Ceara,2016-02-20,state,municipality_microcephaly_suspected,BR0008,18,municipalities,Brazil,Ceara,2016,No,No,Yes,-39.3206241,-5.4983977
Brazil-Ceara,2016-07-02,state,microcephaly_fatal_under_investigation,BR0005,14,cases,Brazil,Ceara,2016,No,No,Yes,-39.3206241,-5.4983977
Brazil-Ceara,2016-05-14,state,microcephaly_confirmed,BR0002,97,cases,Brazil,Ceara,2016,No,Yes,Yes,-39.3206241,-5.4983977
Brazil-Distrito_Federal,2016-02-20,state,municipality_microcephaly_suspected,BR0008,0,municipalities,Brazil,Distrito_Federal,2016,No,No,Yes,-47.8644715,-15.7997654
Brazil-Goias,2016-06-25,state,microcephaly_confirmed,BR0002,14,cases,Brazil,Goias,2016,No,Yes,Yes,-49.8362237,-15.8270369
Brazil-Mato_Grosso_do_Sul,2016-07-02,state,microcephaly_confirmed,BR0002,5,cases,Brazil,Mato_Grosso_do_Sul,2016,No,Yes,Yes,-54.7851531,-20.7722295
Brazil-Minas_Gerais,2016-05-28,state,microcephaly_fatal_confirmed,BR0006,1,cases,Brazil,Minas_Gerais,2016,No,Yes,Yes,-44.5550308,-18.512178
Brazil-Para,2016-06-11,state,microcephaly_fatal_under_investigation,BR0005,5,cases,Brazil,Para,2016,No,No,Yes,-54.9306152,-1.9981271
Brazil-Paraiba,2016-02-27,state,municipality_microcephaly_suspected,BR0008,128,municipalities,Brazil,Paraiba,2016,No,No,Yes,-36.7819505,-7.2399609
Brazil-Paraiba,2016-04-09,state,microcephaly_confirmed,BR0002,105,cases,Brazil,Paraiba,2016,No,Yes,Yes,-36.7819505,-7.2399609
Brazil-Parana,2016-04-23,state,microcephaly_fatal_under_investigation,BR0005,0,cases,Brazil,Parana,2016,No,No,Yes,-52.0215415,-25.2520888
Brazil-Parana,2016-02-20,state,microcephaly_not,BR0003,13,cases,Brazil,Parana,2016,No,No,Yes,-52.0215415,-25.2520888
Brazil-Parana,2016-04-09,state,microcephaly_fatal_confirmed,BR0006,0,cases,Brazil,Parana,2016,No,Yes,Yes,-52.0215415,-25.2520888
Brazil-Pernambuco,2016-05-28,state,microcephaly_fatal_confirmed,BR0006,2,cases,Brazil,Pernambuco,2016,No,Yes,Yes,-36.954107,-8.8137173
Brazil-Piaui,2016-06-04,state,municipality_microcephaly_suspected,BR0008,67,municipalities,Brazil,Piaui,2016,No,No,Yes,-42.7289236,-7.7183401
Brazil-Rio_de_Janeiro,2016-04-16,state,municipality_microcephaly,BR0004,10,municipalities,Brazil,Rio_de_Janeiro,2016,No,No,Yes,-43.1728965,-22.9068467
Brazil-Rio_Grande_do_Norte,2016-05-14,state,municipality_microcephaly,BR0004,42,municipalities,Brazil,Rio_Grande_do_Norte,2016,No,No,Yes,-36.954107,-5.4025803
Brazil-Rio_Grande_do_Sul,2016-03-12,state,municipality_microcephaly,BR0004,1,municipalities,Brazil,Rio_Grande_do_Sul,2016,No,No,Yes,-51.2176986,-30.0346316
Brazil-Rondonia,2016-06-25,state,microcephaly_under_investigation,BR0001,5,cases,Brazil,Rondonia,2016,No,No,Yes,-63.580611,-11.5057341
Brazil-Roraima,2016-06-04,state,microcephaly_fatal_not,BR0007,0,cases,Brazil,Roraima,2016,No,No,Yes,-62.0750998,2.7375971
Colombia-Amazonas-El_Encanto,2016-03-12,municipality,zika_confirmed_laboratory,CO0001,0,cases,Colombia,Amazonas,2016,No,Yes,No,-73.209136,-1.747214
Colombia-Amazonas-El_Encanto,2016-06-04,municipality,zika_confirmed_laboratory,CO0001,0,cases,Colombia,Amazonas,2016,No,Yes,No,-73.209136,-1.747214
Colombia-Amazonas-Puerto_Arica,2016-05-14,municipality,zika_suspected_clinic,CO0004,0,cases,Colombia,Amazonas,2016,No,No,No,-71.73326,-2.13332
Colombia-Amazonas-Unknown,2016-03-26,municipality,zika_suspected,CO0003,29,cases,Colombia,Amazonas,2016,No,No,No,-71.5723953,-1.4429123
Colombia-Antioquia-Andes,2016-01-30,municipality,zika_suspected,CO0003,0,cases,Colombia,Antioquia,2016,No,No,No,-75.879654,5.656421
Colombia-Antioquia-Angelopolis,2016-04-23,municipality,zika_confirmed_clinic,CO0002,0,cases,Colombia,Antioquia,2016,No,Yes,No,-75.711639,6.112769
Colombia-Antioquia-Anori,2016-05-28,municipality,zika_suspected,CO0003,0,cases,Colombia,Antioquia,2016,No,No,No,-75.147287,7.073562
Colombia-Antioquia-Argelia,2016-05-07,municipality,zika_suspected,CO0003,0,cases,Colombia,Antioquia,2016,No,No,No,-75.142186,5.730859
Colombia-Antioquia-Argelia,2016-01-09,municipality,zika_confirmed_clinic,CO0002,0,cases,Colombia,Antioquia,2016,No,Yes,No,-75.142186,5.730859
Colombia-Antioquia-Chigorodo,2016-03-05,municipality,zika_suspected,CO0003,0,cases,Colombia,Antioquia,2016,No,No,No,-76.67749,7.665099
Colombia-Antioquia-El_Bagre,2016-01-16,municipality,zika_confirmed_clinic,CO0002,0,cases,Colombia,Antioquia,2016,No,Yes,No,-74.8062648,7.6056826
Colombia-Antioquia-Frontino,2016-01-23,municipality,zika_confirmed_clinic,CO0002,0,cases,Colombia,Antioquia,2016,No,Yes,No,-76.132917,6.777958
Colombia-Antioquia-Girardota,2016-01-23,municipality,zika_confirmed_laboratory,CO0001,1,cases,Colombia,Antioquia,2016,No,Yes,No,-75.449517,6.378322
Colombia-Antioquia-Hispania,2016-03-05,municipality,zika_suspected,CO0003,0,cases,Colombia,Antioquia,2016,No,No,No,-75.907993,5.799059
Colombia-Antioquia-Ituango,2016-02-13,municipality,zika_confirmed_laboratory,CO0001,0,cases,Colombia,Antioquia,2016,No,Yes,No,-75.76468,7.172607
Colombia-Antioquia-Jardin,2016-06-11,municipality,zika_confirmed_laboratory,CO0001,1,cases,Colombia,Antioquia,2016,No,Yes,No,-75.819361,5.596767
Colombia-Antioquia-La_Estrella,2016-05-28,municipality,zika_confirmed_laboratory,CO0001,1,cases,Colombia,Antioquia,2016,No,Yes,No,-75.635586,6.138751
Colombia-Antioquia-La_Union,2016-06-25,municipality,zika_confirmed_laboratory,CO0001,0,cases,Colombia,Antioquia,2016,No,Yes,No,-75.3609759,5.973839
Colombia-Antioquia-Marinilla,2016-04-23,municipality,zika_confirmed_laboratory,CO0001,0,cases,Colombia,Antioquia,2016,No,Yes,No,-75.341462,6.176967
Colombia-Antioquia-Medellin,2016-01-09,municipality,zika_confirmed_laboratory,CO0001,36,cases,Colombia,Antioquia,2016,No,Yes,No,-75.5812119,6.244203
Colombia-Antioquia-Medellin,2016-02-13,municipality,zika_confirmed_laboratory,CO0001,43,cases,Colombia,Antioquia,2016,No,Yes,No,-75.5812119,6.244203
Colombia-Antioquia-Peque,2016-03-05,municipality,zika_confirmed_laboratory,CO0001,0,cases,Colombia,Antioquia,2016,No,Yes,No,-75.908107,7.021535
Colombia-Antioquia-Puerto_Nare,2016-04-30,municipality,zika_suspected_clinic,CO0004,3,cases,Colombia,Antioquia,2016,No,No,No,-74.583726,6.186497
Colombia-Antioquia-Puerto_Nare,2016-06-11,municipality,zika_confirmed_laboratory,CO0001,1,cases,Colombia,Antioquia,2016,No,Yes,No,-74.583726,6.186497
Colombia-Antioquia-Retiro,2016-01-23,municipality,zika_confirmed_laboratory,CO0001,0,cases,Colombia,Antioquia,2016,No,Yes,No,-75.502582,6.060955
Colombia-Antioquia-Sabanalarga,2016-02-20,municipality,zika_confirmed_laboratory,CO0001,0,cases,Colombia,Antioquia,2016,No,Yes,No,-75.8180567,6.8496962
Colombia-Antioquia-Sabaneta,2016-01-23,municipality,zika_confirmed_clinic,CO0002,0,cases,Colombia,Antioquia,2016,No,Yes,No,-75.61682,6.150559
Colombia-Antioquia-Salgar,2016-05-07,municipality,zika_suspected,CO0003,1,cases,Colombia,Antioquia,2016,No,No,No,-75.963942,5.963336
Colombia-Antioquia-San_Andres_De_Cuerquia,2016-03-12,municipality,zika_suspected,CO0003,3,cases,Colombia,Antioquia,2016,No,No,No,-75.67556,6.913245
Colombia-Antioquia-San_Carlos,2016-04-23,municipality,zika_confirmed_laboratory,CO0001,1,cases,Colombia,Antioquia,2016,No,Yes,No,-74.993227,6.187979
Colombia-Antioquia-San_Francisco,2016-01-30,municipality,zika_confirmed_clinic,CO0002,0,cases,Colombia,Antioquia,2016,No,Yes,No,-75.102138,5.963428
Colombia-Antioquia-San_Francisco,2016-03-05,municipality,zika_confirmed_laboratory,CO0001,0,cases,Colombia,Antioquia,2016,No,Yes,No,-75.102138,5.963428
Colombia-Antioquia-San_Jeronimo,2016-03-05,municipality,zika_confirmed_laboratory,CO0001,0,cases,Colombia,Antioquia,2016,No,Yes,No,-75.728159,6.442513
Colombia-Antioquia-San_Jose_De_La_Montana,2016-02-27,municipality,zika_confirmed_clinic,CO0002,0,cases,Colombia,Antioquia,2016,No,Yes,No,-75.684091,6.849736
Colombia-Antioquia-San_Juan_De_Uraba,2016-03-26,municipality,zika_confirmed_laboratory,CO0001,0,cases,Colombia,Antioquia,2016,No,Yes,No,-76.526738,8.7624549
Colombia-Antioquia-San_Luis,2016-04-30,municipality,zika_suspected_clinic,CO0004,2,cases,Colombia,Antioquia,2016,No,No,No,-74.995071,6.042454
Colombia-Antioquia-San_Pedro,2016-06-18,municipality,zika_suspected_clinic,CO0004,0,cases,Colombia,Antioquia,2016,No,No,No,-75.5575018,6.4608006
Colombia-Antioquia-Santafe_De_Antioquia,2016-03-19,municipality,zika_suspected,CO0003,16,cases,Colombia,Antioquia,2016,No,No,No,-75.827129,6.557179
Colombia-Antioquia-Santafe_De_Antioquia,2016-06-25,municipality,zika_suspected,CO0003,24,cases,Colombia,Antioquia,2016,No,No,No,-75.827129,6.557179
Colombia-Antioquia-Titiribi,2016-04-23,municipality,zika_confirmed_laboratory,CO0001,0,cases,Colombia,Antioquia,2016,No,Yes,No,-75.79341,6.06259
Colombia-Antioquia-Urrao,2016-04-23,municipality,zika_suspected,CO0003,2,cases,Colombia,Antioquia,2016,No,No,No,-76.13181,6.313861
Colombia-Antioquia-Zaragoza,2016-02-27,municipality,zika_confirmed_clinic,CO0002,0,cases,Colombia,Antioquia,2016,No,Yes,No,-74.8672519,7.48688
Colombia-Arauca-Cravo_Norte,2016-03-05,municipality,zika_confirmed_laboratory,CO0001,0,cases,Colombia,Arauca,2016,No,Yes,No,-70.202659,6.30435
Colombia-Arauca-Cravo_Norte,2016-02-20,municipality,zika_confirmed_clinic,CO0002,0,cases,Colombia,Arauca,2016,No,Yes,No,-70.202659,6.30435
Colombia-Arauca-Tame,2016-03-05,municipality,zika_confirmed_clinic,CO0002,24,cases,Colombia,Arauca,2016,No,Yes,No,-71.745515,6.457094
Colombia-Atlantico-Baranoa,2016-03-12,municipality,zika_suspected,CO0003,0,cases,Colombia,Atlantico,2016,No,No,No,-74.915036,10.796589
Colombia-Atlantico-Baranoa,2016-01-30,municipality,zika_suspected,CO0003,0,cases,Colombia,Atlantico,2016,No,No,No,-74.915036,10.796589
Colombia-Atlantico-Campo_De_La_Cruz,2016-02-13,municipality,zika_confirmed_clinic,CO0002,0,cases,Colombia,Atlantico,2016,No,Yes,No,-74.881979,10.379923
Colombia-Atlantico-Galapa,2016-02-06,municipality,zika_confirmed_clinic,CO0002,0,cases,Colombia,Atlantico,2016,No,Yes,No,-74.883823,10.898923
Colombia-Atlantico-Juan_De_Acosta,2016-06-04,municipality,zika_confirmed_laboratory,CO0001,2,cases,Colombia,Atlantico,2016,No,Yes,No,-75.035858,10.829092
Colombia-Atlantico-Juan_De_Acosta,2016-02-13,municipality,zika_confirmed_laboratory,CO0001,0,cases,Colombia,Atlantico,2016,No,Yes,No,-75.035858,10.829092
Colombia-Atlantico-Palmar_De_Varela,2016-05-21,municipality,zika_confirmed_laboratory,CO0001,1,cases,Colombia,Atlantico,2016,No,Yes,No,-74.755272,10.74044
Colombia-Atlantico-Piojo,2016-01-16,municipality,zika_confirmed_laboratory,CO0001,0,cases,Colombia,Atlantico,2016,No,Yes,No,-75.107922,10.748716
Colombia-Atlantico-Ponedera,2016-06-04,municipality,zika_suspected_clinic,CO0004,0,cases,Colombia,Atlantico,2016,No,No,No,-74.753281,10.641772
Colombia-Atlantico-Puerto_Colombia,2016-01-23,municipality,zika_suspected,CO0003,0,cases,Colombia,Atlantico,2016,No,No,No,-74.950761,11.001004
Colombia-Atlantico-Sabanagrande,2016-03-26,municipality,zika_confirmed_laboratory,CO0001,0,cases,Colombia,Atlantico,2016,No,Yes,No,-74.755201,10.789771
Colombia-Atlantico-Sabanalarga,2016-04-16,municipality,zika_suspected,CO0003,76,cases,Colombia,Atlantico,2016,No,No,No,-74.920163,10.632409
Colombia-Atlantico-Tubara,2016-04-16,municipality,zika_suspected,CO0003,0,cases,Colombia,Atlantico,2016,No,No,No,-74.977354,10.872762
Colombia-Bogota-Fontibon_Fontibon,2016-01-23,municipality,zika_confirmed_laboratory,CO0001,0,cases,Colombia,Bogota,2016,No,Yes,No,-74.143671,4.673689
Colombia-Bogota-Kennedy_Americas,2016-02-06,municipality,zika_confirmed_laboratory,CO0001,0,cases,Colombia,Bogota,2016,No,Yes,No,-74.148473,4.63113
Colombia-Bogota-La_Candelaria_La_Candelaria,2016-01-09,municipality,zika_confirmed_laboratory,CO0001,0,cases,Colombia,Bogota,2016,No,Yes,No,-74.0728759,4.597014
Colombia-Bogota-La_Candelaria_La_Candelaria,2016-02-06,municipality,zika_confirmed_clinic,CO0002,0,cases,Colombia,Bogota,2016,No,Yes,No,-74.0728759,4.597014
Colombia-Bogota-Usaquen_Santa_Barbara,2016-01-16,municipality,zika_confirmed_clinic,CO0002,0,cases,Colombia,Bogota,2016,No,Yes,No,-74.0322155,4.6987535
Colombia-Bolivar-Achi,2016-06-04,municipality,zika_suspected_clinic,CO0004,0,cases,Colombia,Bolivar,2016,No,No,No,-74.5559339,8.567685
Colombia-Bolivar-Achi,2016-05-21,municipality,zika_suspected_clinic,CO0004,0,cases,Colombia,Bolivar,2016,No,No,No,-74.5559339,8.567685
Colombia-Bolivar-Cantagallo,2016-04-09,municipality,zika_suspected,CO0003,18,cases,Colombia,Bolivar,2016,No,No,No,-73.919121,7.38153
Colombia-Bolivar-El_Guamo,2016-06-25,municipality,zika_confirmed_laboratory,CO0001,0,cases,Colombia,Bolivar,2016,No,Yes,No,-74.97611,10.031243
Colombia-Bolivar-El_Guamo,2016-03-05,municipality,zika_confirmed_clinic,CO0002,0,cases,Colombia,Bolivar,2016,No,Yes,No,-74.97611,10.031243
Colombia-Bolivar-El_Guamo,2016-04-02,municipality,zika_suspected,CO0003,2,cases,Colombia,Bolivar,2016,No,No,No,-74.97611,10.031243
Colombia-Bolivar-Mahates,2016-04-23,municipality,zika_confirmed_clinic,CO0002,33,cases,Colombia,Bolivar,2016,No,Yes,No,-75.191297,10.235048
Colombia-Bolivar-Rio_Viejo,2016-05-14,municipality,zika_suspected_clinic,CO0004,2,cases,Colombia,Bolivar,2016,No,No,No,-73.840258,8.588397
Colombia-Bolivar-San_Cristobal,2016-04-02,municipality,zika_confirmed_laboratory,CO0001,0,cases,Colombia,Bolivar,2016,No,Yes,No,-75.063889,10.39432
Colombia-Bolivar-San_Juan_Nepomuceno,2016-01-30,municipality,zika_suspected,CO0003,0,cases,Colombia,Bolivar,2016,No,No,No,-75.083828,9.95114
Colombia-Bolivar-Santa_Rosa_Del_Sur,2016-02-13,municipality,zika_suspected,CO0003,0,cases,Colombia,Bolivar,2016,No,No,No,-74.0520439,7.9629547
Colombia-Bolivar-Santa_Rosa_Del_Sur,2016-02-27,municipality,zika_confirmed_laboratory,CO0001,13,cases,Colombia,Bolivar,2016,No,Yes,No,-74.0520439,7.9629547
Colombia-Bolivar-Santa_Rosa_Del_Sur,2016-02-06,municipality,zika_suspected,CO0003,0,cases,Colombia,Bolivar,2016,No,No,No,-74.0520439,7.9629547
Colombia-Bolivar-Tiquisio,2016-06-25,municipality,zika_confirmed_laboratory,CO0001,0,cases,Colombia,Bolivar,2016,No,Yes,No,-74.26361,8.55768
Colombia-Bolivar-Turbana,2016-06-11,municipality,zika_confirmed_laboratory,CO0001,1,cases,Colombia,Bolivar,2016,No,Yes,No,-75.441594,10.274743
Colombia-Boyaca-Almeida,2016-05-21,municipality,zika_confirmed_laboratory,CO0001,0,cases,Colombia,Boyaca,2016,No,Yes,No,-73.3799,4.97088
Colombia-Boyaca-Beteitiva,2016-01-16,municipality,zika_confirmed_clinic,CO0002,0,cases,Colombia,Boyaca,2016,No,Yes,No,-72.808987,5.910362
Colombia-Boyaca-Boyaca,2016-04-30,municipality,zika_suspected,CO0003,1,cases,Colombia,Boyaca,2016,No,No,No,-73.362003,5.454511
Colombia-Boyaca-Busbanza,2016-01-23,municipality,zika_confirmed_laboratory,CO0001,0,cases,Colombia,Boyaca,2016,No,Yes,No,-72.883814,5.830509
Colombia-Boyaca-Combita,2016-04-30,municipality,zika_suspected_clinic,CO0004,0,cases,Colombia,Boyaca,2016,No,No,No,-73.323263,5.634202
Colombia-Boyaca-Corrales,2016-02-27,municipality,zika_suspected,CO0003,0,cases,Colombia,Boyaca,2016,No,No,No,-72.844945,5.828674
Colombia-Boyaca-Covarachia,2016-05-21,municipality,zika_suspected_clinic,CO0004,0,cases,Colombia,Boyaca,2016,No,No,No,-72.739244,6.500365
Colombia-Boyaca-Cubara,2016-04-16,municipality,zika_confirmed_laboratory,CO0001,0,cases,Colombia,Boyaca,2016,No,Yes,No,-72.108186,7.00178
Colombia-Boyaca-Cucaita,2016-02-06,municipality,zika_confirmed_clinic,CO0002,0,cases,Colombia,Boyaca,2016,No,Yes,No,-73.454842,5.543296
Colombia-Boyaca-El_Cocuy,2016-03-26,municipality,zika_confirmed_laboratory,CO0001,0,cases,Colombia,Boyaca,2016,No,Yes,No,-72.4454499,6.408891
Colombia-Boyaca-El_Cocuy,2016-01-16,municipality,zika_suspected,CO0003,0,cases,Colombia,Boyaca,2016,No,No,No,-72.4454499,6.408891
Colombia-Boyaca-Gameza,2016-01-16,municipality,zika_suspected,CO0003,0,cases,Colombia,Boyaca,2016,No,No,No,-72.80632,5.802567
Colombia-Boyaca-Guacamayas,2016-05-21,municipality,zika_suspected,CO0003,0,cases,Colombia,Boyaca,2016,No,No,No,-72.500009,6.459443
Colombia-Boyaca-Guayata,2016-06-11,municipality,zika_suspected,CO0003,0,cases,Colombia,Boyaca,2016,No,No,No,-73.490098,4.968157
Colombia-Boyaca-Jerico,2016-06-18,municipality,zika_suspected,CO0003,0,cases,Colombia,Boyaca,2016,No,No,No,-72.570654,6.14603
Colombia-Boyaca-La_Victoria,2016-03-12,municipality,zika_suspected,CO0003,0,cases,Colombia,Boyaca,2016,No,No,No,-74.234611,5.523663
Colombia-Boyaca-Labranzagrande,2016-03-05,municipality,zika_confirmed_clinic,CO0002,0,cases,Colombia,Boyaca,2016,No,Yes,No,-72.577628,5.562763
Colombia-Boyaca-Maripi,2016-03-26,municipality,zika_suspected_clinic,CO0004,0,cases,Colombia,Boyaca,2016,No,No,No,-74.0046909,5.549623
Colombia-Boyaca-Miraflores,2016-06-11,municipality,zika_suspected,CO0003,2,cases,Colombia,Boyaca,2016,No,No,No,-73.143061,5.196395
Colombia-Boyaca-Mongua,2016-05-07,municipality,zika_suspected_clinic,CO0004,0,cases,Colombia,Boyaca,2016,No,No,No,-72.7998479,5.7541536
Colombia-Boyaca-Mongua,2016-04-02,municipality,zika_confirmed_laboratory,CO0001,0,cases,Colombia,Boyaca,2016,No,Yes,No,-72.7998479,5.7541536
Colombia-Boyaca-Mongui,2016-02-06,municipality,zika_confirmed_laboratory,CO0001,0,cases,Colombia,Boyaca,2016,No,Yes,No,-72.849089,5.723206
Colombia-Boyaca-Motavita,2016-04-16,municipality,zika_suspected,CO0003,0,cases,Colombia,Boyaca,2016,No,No,No,-73.368186,5.577547
Colombia-Boyaca-Muzo,2016-03-05,municipality,zika_confirmed_laboratory,CO0001,6,cases,Colombia,Boyaca,2016,No,Yes,No,-74.103016,5.531629
Colombia-Boyaca-Nuevo_Colon,2016-04-30,municipality,zika_suspected,CO0003,0,cases,Colombia,Boyaca,2016,No,No,No,-73.457382,5.354865
Colombia-Boyaca-Otanche,2016-03-05,municipality,zika_confirmed_laboratory,CO0001,1,cases,Colombia,Boyaca,2016,No,Yes,No,-74.181142,5.658514
Colombia-Boyaca-Otanche,2016-02-06,municipality,zika_confirmed_laboratory,CO0001,1,cases,Colombia,Boyaca,2016,No,Yes,No,-74.181142,5.658514
Colombia-Boyaca-Pachavita,2016-02-20,municipality,zika_confirmed_laboratory,CO0001,0,cases,Colombia,Boyaca,2016,No,Yes,No,-73.397147,5.139941
Colombia-Boyaca-Panqueba,2016-04-23,municipality,zika_suspected,CO0003,0,cases,Colombia,Boyaca,2016,No,No,No,-72.458962,6.4431139
Colombia-Boyaca-Pauna,2016-06-18,municipality,zika_suspected,CO0003,1,cases,Colombia,Boyaca,2016,No,No,No,-73.978073,5.656439
Colombia-Boyaca-Paz_De_Rio,2016-02-27,municipality,zika_confirmed_laboratory,CO0001,0,cases,Colombia,Boyaca,2016,No,Yes,No,-72.747076,5.9876189
Colombia-Boyaca-Ramiriqui,2016-01-09,municipality,zika_confirmed_laboratory,CO0001,0,cases,Colombia,Boyaca,2016,No,Yes,No,-73.335738,5.401841
Colombia-Boyaca-Sachica,2016-04-02,municipality,zika_suspected,CO0003,1,cases,Colombia,Boyaca,2016,No,No,No,-73.542575,5.583059
Colombia-Boyaca-Santa_Sofia,2016-02-13,municipality,zika_suspected,CO0003,0,cases,Colombia,Boyaca,2016,No,No,No,-73.602068,5.713961
Colombia-Boyaca-Santa_Sofia,2016-04-09,municipality,zika_suspected,CO0003,0,cases,Colombia,Boyaca,2016,No,No,No,-73.602068,5.713961
Colombia-Boyaca-Santa_Sofia,2016-01-30,municipality,zika_suspected,CO0003,0,cases,Colombia,Boyaca,2016,No,No,No,-73.602068,5.713961
Colombia-Boyaca-Santana,2016-05-21,municipality,zika_suspected_clinic,CO0004,6,cases,Colombia,Boyaca,2016,No,No,No,-73.48223,6.05724
Colombia-Boyaca-Santana,2016-04-16,municipality,zika_suspected_clinic,CO0004,5,cases,Colombia,Boyaca,2016,No,No,No,-73.48223,6.05724
Colombia-Boyaca-Sativanorte,2016-04-16,municipality,zika_confirmed_laboratory,CO0001,0,cases,Colombia,Boyaca,2016,No,Yes,No,-72.708125,6.131271
Colombia-Boyaca-Sativasur,2016-04-23,municipality,zika_confirmed_laboratory,CO0001,0,cases,Colombia,Boyaca,2016,No,Yes,No,-72.712022,6.093447
Colombia-Boyaca-Siachoque,2016-02-27,municipality,zika_confirmed_clinic,CO0002,0,cases,Colombia,Boyaca,2016,No,Yes,No,-73.244834,5.511608
Colombia-Boyaca-Sotaquira,2016-01-30,municipality,zika_confirmed_laboratory,CO0001,0,cases,Colombia,Boyaca,2016,No,Yes,No,-73.246566,5.76532
Colombia-Boyaca-Susacon,2016-04-09,municipality,zika_suspected_clinic,CO0004,0,cases,Colombia,Boyaca,2016,No,No,No,-72.689835,6.230563
Colombia-Boyaca-Sutamarchan,2016-02-13,municipality,zika_confirmed_laboratory,CO0001,0,cases,Colombia,Boyaca,2016,No,Yes,No,-73.620936,5.620003
Colombia-Boyaca-Tasco,2016-03-26,municipality,zika_confirmed_laboratory,CO0001,0,cases,Colombia,Boyaca,2016,No,Yes,No,-72.78081,5.909396
Colombia-Boyaca-Tota,2016-03-12,municipality,zika_confirmed_laboratory,CO0001,0,cases,Colombia,Boyaca,2016,No,Yes,No,-72.985939,5.560332
Colombia-Boyaca-Tunungua,2016-05-28,municipality,zika_confirmed_laboratory,CO0001,0,cases,Colombia,Boyaca,2016,No,Yes,No,-73.9334103,5.7304983
Colombia-Boyaca-Umbita,2016-05-14,municipality,zika_suspected_clinic,CO0004,0,cases,Colombia,Boyaca,2016,No,No,No,-73.45687,5.22138
Colombia-Boyaca-Villa_De_Leyva,2016-06-11,municipality,zika_suspected_clinic,CO0004,0,cases,Colombia,Boyaca,2016,No,No,No,-73.527058,5.636499
Colombia-Caldas-Aguadas,2016-01-23,municipality,zika_confirmed_laboratory,CO0001,0,cases,Colombia,Caldas,2016,No,Yes,No,-75.453135,5.608334
Colombia-Caldas-Chinchina,2016-03-12,municipality,zika_confirmed_laboratory,CO0001,1,cases,Colombia,Caldas,2016,No,Yes,No,-75.60526,4.98273
Colombia-Caldas-Chinchina,2016-05-21,municipality,zika_suspected,CO0003,0,cases,Colombia,Caldas,2016,No,No,No,-75.60526,4.98273
Colombia-Caldas-Filadelfia,2016-06-25,municipality,zika_confirmed_laboratory,CO0001,1,cases,Colombia,Caldas,2016,No,Yes,No,-75.5623449,5.2977
Colombia-Caldas-Neira,2016-03-26,municipality,zika_confirmed_laboratory,CO0001,0,cases,Colombia,Caldas,2016,No,Yes,No,-75.520356,5.166841
Colombia-Caldas-Neira,2016-04-30,municipality,zika_confirmed_laboratory,CO0001,1,cases,Colombia,Caldas,2016,No,Yes,No,-75.520356,5.166841
Colombia-Caldas-Palestina,2016-02-06,municipality,zika_confirmed_clinic,CO0002,3,cases,Colombia,Caldas,2016,No,Yes,No,-75.62281,5.02022
Colombia-Caldas-Pensilvania,2016-02-13,municipality,zika_suspected,CO0003,0,cases,Colombia,Caldas,2016,No,No,No,-75.161426,5.38211
Colombia-Caldas-San_Jose,2016-02-27,municipality,zika_suspected,CO0003,1,cases,Colombia,Caldas,2016,No,No,No,-75.791461,5.081463
Colombia-Caldas-Supia,2016-01-23,municipality,zika_suspected,CO0003,1,cases,Colombia,Caldas,2016,No,No,No,-75.650401,5.45589
Colombia-Caldas-Victoria,2016-02-06,municipality,zika_confirmed_laboratory,CO0001,1,cases,Colombia,Caldas,2016,No,Yes,No,-74.910711,5.317755
Colombia-Caldas-Victoria,2016-04-09,municipality,zika_suspected_clinic,CO0004,14,cases,Colombia,Caldas,2016,No,No,No,-74.910711,5.317755
Colombia-Caldas-Viterbo,2016-06-18,municipality,zika_suspected,CO0003,0,cases,Colombia,Caldas,2016,No,No,No,-75.872356,5.0605779
Colombia-Caqueta-Puerto_Rico,2016-03-05,municipality,zika_suspected,CO0003,10,cases,Colombia,Caqueta,2016,No,No,No,-75.157235,1.909918
Colombia-Caqueta-Solita,2016-04-16,municipality,zika_suspected_clinic,CO0004,0,cases,Colombia,Caqueta,2016,No,No,No,-75.62059,0.88022
Colombia-Caqueta-Valparaiso,2016-03-19,municipality,zika_suspected,CO0003,3,cases,Colombia,Caqueta,2016,No,No,No,-75.705324,1.1951639
Colombia-Casanare-Aguazul,2016-01-30,municipality,zika_confirmed_clinic,CO0002,8,cases,Colombia,Casanare,2016,No,Yes,No,-72.550819,5.170847
Colombia-Casanare-Aguazul,2016-02-06,municipality,zika_confirmed_clinic,CO0002,23,cases,Colombia,Casanare,2016,No,Yes,No,-72.550819,5.170847
Colombia-Casanare-Hato_Corozal,2016-01-30,municipality,zika_confirmed_clinic,CO0002,0,cases,Colombia,Casanare,2016,No,Yes,No,-71.76236,6.154946
Colombia-Casanare-Monterrey,2016-01-23,municipality,zika_confirmed_laboratory,CO0001,1,cases,Colombia,Casanare,2016,No,Yes,No,-72.893364,4.875246
Colombia-Casanare-Paz_De_Ariporo,2016-03-19,municipality,zika_suspected_clinic,CO0004,0,cases,Colombia,Casanare,2016,No,No,No,-71.892912,5.880639
Colombia-Casanare-Pore,2016-01-09,municipality,zika_confirmed_clinic,CO0002,0,cases,Colombia,Casanare,2016,No,Yes,No,-71.993941,5.7265629
Colombia-Casanare-San_Luis_De_Palenque,2016-02-20,municipality,zika_confirmed_clinic,CO0002,2,cases,Colombia,Casanare,2016,No,Yes,No,-71.730861,5.420282
Colombia-Casanare-Tauramena,2016-04-16,municipality,zika_confirmed_laboratory,CO0001,4,cases,Colombia,Casanare,2016,No,Yes,No,-72.750495,5.0106849
Colombia-Cauca-Balboa,2016-01-16,municipality,zika_confirmed_clinic,CO0002,0,cases,Colombia,Cauca,2016,No,Yes,No,-77.216606,2.040728
Colombia-Cauca-Cajibio,2016-05-21,municipality,zika_suspected_clinic,CO0004,0,cases,Colombia,Cauca,2016,No,No,No,-76.571608,2.621916
Colombia-Cauca-Guachene,2016-06-25,municipality,zika_confirmed_laboratory,CO0001,0,cases,Colombia,Cauca,2016,No,Yes,No,-76.393794,3.1329159
Colombia-Cauca-Guapi,2016-04-30,municipality,zika_suspected_clinic,CO0004,0,cases,Colombia,Cauca,2016,No,No,No,-77.885469,2.571287
Colombia-Cauca-Guapi,2016-03-12,municipality,zika_suspected,CO0003,1,cases,Colombia,Cauca,2016,No,No,No,-77.885469,2.571287
Colombia-Cauca-Jambalo,2016-03-12,municipality,zika_suspected,CO0003,1,cases,Colombia,Cauca,2016,No,No,No,-76.324327,2.777846
Colombia-Cauca-La_Sierra,2016-03-19,municipality,zika_suspected,CO0003,1,cases,Colombia,Cauca,2016,No,No,No,-76.76214,2.17845
Colombia-Cauca-Lopez,2016-04-30,municipality,zika_suspected,CO0003,0,cases,Colombia,Cauca,2016,No,No,No,-77.248039,2.8458039
Colombia-Cauca-Miranda,2016-03-26,municipality,zika_suspected_clinic,CO0004,0,cases,Colombia,Cauca,2016,No,No,No,-76.229027,3.251528
Colombia-Cauca-Paez,2016-02-27,municipality,zika_confirmed_laboratory,CO0001,0,cases,Colombia,Cauca,2016,No,Yes,No,-75.9928,2.65474
Colombia-Cauca-Piamonte,2016-01-23,municipality,zika_confirmed_laboratory,CO0001,0,cases,Colombia,Cauca,2016,No,Yes,No,-76.319972,1.117611
Colombia-Cauca-Purace,2016-03-26,municipality,zika_confirmed_laboratory,CO0001,0,cases,Colombia,Cauca,2016,No,Yes,No,-76.497159,2.341733
Colombia-Cauca-Purace,2016-06-11,municipality,zika_suspected,CO0003,0,cases,Colombia,Cauca,2016,No,No,No,-76.497159,2.341733
Colombia-Cauca-Rosas,2016-06-04,municipality,zika_suspected,CO0003,0,cases,Colombia,Cauca,2016,No,No,No,-76.7406139,2.261858
Colombia-Cauca-Timbiqui,2016-05-14,municipality,zika_confirmed_laboratory,CO0001,0,cases,Colombia,Cauca,2016,No,Yes,No,-77.667606,2.777744
Colombia-Cauca-Totoro,2016-05-07,municipality,zika_confirmed_laboratory,CO0001,0,cases,Colombia,Cauca,2016,No,Yes,No,-76.40173,2.509941
Colombia-Cauca-Totoro,2016-02-06,municipality,zika_confirmed_clinic,CO0002,0,cases,Colombia,Cauca,2016,No,Yes,No,-76.40173,2.509941
Colombia-Cesar-Becerril,2016-04-09,municipality,zika_suspected,CO0003,0,cases,Colombia,Cesar,2016,No,No,No,-73.278795,9.703677
Colombia-Cesar-El_Copey,2016-04-30,municipality,zika_suspected_clinic,CO0004,31,cases,Colombia,Cesar,2016,No,No,No,-73.960233,10.148976
Colombia-Cesar-Gamarra,2016-02-20,municipality,zika_confirmed_laboratory,CO0001,0,cases,Colombia,Cesar,2016,No,Yes,No,-73.743937,8.319316
Colombia-Cesar-Gamarra,2016-04-16,municipality,zika_suspected_clinic,CO0004,0,cases,Colombia,Cesar,2016,No,No,No,-73.743937,8.319316
Colombia-Cesar-La_Gloria,2016-04-23,municipality,zika_confirmed_laboratory,CO0001,0,cases,Colombia,Cesar,2016,No,Yes,No,-73.8083,8.62281
Colombia-Cesar-Manaure,2016-03-19,municipality,zika_suspected_clinic,CO0004,0,cases,Colombia,Cesar,2016,No,No,No,-73.027245,10.3900406
Colombia-Cesar-Manaure,2016-04-16,municipality,zika_suspected_clinic,CO0004,0,cases,Colombia,Cesar,2016,No,No,No,-73.027245,10.3900406
Colombia-Cesar-Pailitas,2016-02-20,municipality,zika_confirmed_clinic,CO0002,0,cases,Colombia,Cesar,2016,No,Yes,No,-73.626268,8.959667
Colombia-Cesar-Pueblo_Bello,2016-04-09,municipality,zika_suspected,CO0003,11,cases,Colombia,Cesar,2016,No,No,No,-73.580083,10.420771
Colombia-Cesar-Tamalameque,2016-01-16,municipality,zika_confirmed_laboratory,CO0001,0,cases,Colombia,Cesar,2016,No,Yes,No,-73.810756,8.861748
Colombia-Cesar-Tamalameque,2016-01-23,municipality,zika_confirmed_clinic,CO0002,0,cases,Colombia,Cesar,2016,No,Yes,No,-73.810756,8.861748
Colombia-Cesar-Unknown,2016-04-30,municipality,zika_confirmed_laboratory,CO0001,1,cases,Colombia,Cesar,2016,No,Yes,No,-73.6536209,9.3372948
Colombia-Choco-Acandi,2016-02-27,municipality,zika_confirmed_clinic,CO0002,0,cases,Colombia,Choco,2016,No,Yes,No,-77.27898,8.510109
Colombia-Choco-Bahia_Solano,2016-03-26,municipality,zika_confirmed_laboratory,CO0001,0,cases,Colombia,Choco,2016,No,Yes,No,-77.401154,6.222552
Colombia-Choco-Belen_De_Bajira,2016-06-25,municipality,zika_suspected,CO0003,0,cases,Colombia,Choco,2016,No,No,No,-76.714114,7.3689153
Colombia-Choco-Bojaya,2016-04-09,municipality,zika_suspected,CO0003,0,cases,Colombia,Choco,2016,No,No,No,-77.1024902,6.4971459
Colombia-Choco-Carmen_Del_Darien,2016-05-28,municipality,zika_suspected_clinic,CO0004,0,cases,Colombia,Choco,2016,No,No,No,-76.6513374,5.6881992
Colombia-Choco-Certegui,2016-05-07,municipality,zika_suspected_clinic,CO0004,0,cases,Colombia,Choco,2016,No,No,No,-76.60003,5.40004
Colombia-Choco-Condoto,2016-03-26,municipality,zika_suspected,CO0003,1,cases,Colombia,Choco,2016,No,No,No,-76.652079,5.089546
Colombia-Choco-Medio_San_Juan,2016-01-30,municipality,zika_confirmed_laboratory,CO0001,0,cases,Colombia,Choco,2016,No,Yes,No,-76.69438,5.09551
Colombia-Choco-Sipi,2016-04-16,municipality,zika_confirmed_laboratory,CO0001,0,cases,Colombia,Choco,2016,No,Yes,No,-76.64417,4.65306
Colombia-Cordoba-Ayapel,2016-06-25,municipality,zika_confirmed_laboratory,CO0001,0,cases,Colombia,Cordoba,2016,No,Yes,No,-75.140264,8.3092849
Colombia-Cordoba-Cienaga_De_Oro,2016-04-23,municipality,zika_confirmed_laboratory,CO0001,1,cases,Colombia,Cordoba,2016,No,Yes,No,-75.621332,8.879215
Colombia-Cordoba-Momil,2016-06-04,municipality,zika_suspected,CO0003,79,cases,Colombia,Cordoba,2016,No,No,No,-75.6767349,9.239504
Colombia-Cordoba-Monitos,2016-05-14,municipality,zika_confirmed_laboratory,CO0001,0,cases,Colombia,Cordoba,2016,No,Yes,No,-76.130784,9.246772
Colombia-Cordoba-Montelibano,2016-06-18,municipality,zika_suspected_clinic,CO0004,181,cases,Colombia,Cordoba,2016,No,No,No,-75.417209,7.976803
Colombia-Cordoba-Monteria,2016-03-12,municipality,zika_confirmed_clinic,CO0002,1615,cases,Colombia,Cordoba,2016,No,Yes,No,-75.8785348,8.750983
Colombia-Cordoba-Pueblo_Nuevo,2016-05-14,municipality,zika_confirmed_laboratory,CO0001,0,cases,Colombia,Cordoba,2016,No,Yes,No,-75.507409,8.50502
Colombia-Cordoba-Pueblo_Nuevo,2016-03-26,municipality,zika_confirmed_laboratory,CO0001,0,cases,Colombia,Cordoba,2016,No,Yes,No,-75.507409,8.50502
Colombia-Cordoba-Puerto_Libertador,2016-06-25,municipality,zika_suspected_clinic,CO0004,0,cases,Colombia,Cordoba,2016,No,No,No,-75.670944,7.887952
Colombia-Cordoba-San_Bernardo_Del_Viento,2016-06-11,municipality,zika_suspected,CO0003,116,cases,Colombia,Cordoba,2016,No,No,No,-75.9535815,9.3525858
Colombia-Cordoba-Tierralta,2016-06-18,municipality,zika_confirmed_laboratory,CO0001,8,cases,Colombia,Cordoba,2016,No,Yes,No,-76.062313,8.171571
Colombia-Cordoba-Tuchin,2016-02-13,municipality,zika_confirmed_clinic,CO0002,11,cases,Colombia,Cordoba,2016,No,Yes,No,-75.55416,9.18719
Colombia-Cundinamarca-Alban,2016-04-16,municipality,zika_suspected,CO0003,0,cases,Colombia,Cundinamarca,2016,No,No,No,-74.437772,4.876248
Colombia-Cundinamarca-Arbelaez,2016-05-21,municipality,zika_suspected_clinic,CO0004,0,cases,Colombia,Cundinamarca,2016,No,No,No,-74.416014,4.272793
Colombia-Cundinamarca-Bojaca,2016-05-14,municipality,zika_suspected,CO0003,0,cases,Colombia,Cundinamarca,2016,No,No,No,-74.341776,4.732618
Colombia-Cundinamarca-Choachi,2016-01-09,municipality,zika_confirmed_clinic,CO0002,0,cases,Colombia,Cundinamarca,2016,No,Yes,No,-73.922968,4.528659
Colombia-Cundinamarca-El_Rosal,2016-04-09,municipality,zika_confirmed_laboratory,CO0001,0,cases,Colombia,Cundinamarca,2016,No,Yes,No,-74.264824,4.85225
Colombia-Cundinamarca-Fomeque,2016-02-27,municipality,zika_confirmed_laboratory,CO0001,0,cases,Colombia,Cundinamarca,2016,No,Yes,No,-73.895359,4.486748
Colombia-Cundinamarca-Fomeque,2016-03-05,municipality,zika_suspected,CO0003,0,cases,Colombia,Cundinamarca,2016,No,No,No,-73.895359,4.486748
Colombia-Cundinamarca-Fosca,2016-06-11,municipality,zika_suspected_clinic,CO0004,0,cases,Colombia,Cundinamarca,2016,No,No,No,-73.938919,4.338952
Colombia-Cundinamarca-Gama,2016-01-16,municipality,zika_suspected,CO0003,0,cases,Colombia,Cundinamarca,2016,No,No,No,-73.610321,4.762033
Colombia-Cundinamarca-Granada,2016-02-06,municipality,zika_confirmed_laboratory,CO0001,0,cases,Colombia,Cundinamarca,2016,No,Yes,No,-74.356481,4.524233
Colombia-Cundinamarca-Guacheta,2016-01-23,municipality,zika_confirmed_laboratory,CO0001,0,cases,Colombia,Cundinamarca,2016,No,Yes,No,-73.686939,5.383675
Colombia-Cundinamarca-Guatavita,2016-05-07,municipality,zika_suspected_clinic,CO0004,0,cases,Colombia,Cundinamarca,2016,No,No,No,-73.833644,4.934487
Colombia-Cundinamarca-La_Palma,2016-06-11,municipality,zika_suspected_clinic,CO0004,150,cases,Colombia,Cundinamarca,2016,No,No,No,-74.390683,5.358433
Colombia-Cundinamarca-Madrid,2016-03-26,municipality,zika_suspected_clinic,CO0004,0,cases,Colombia,Cundinamarca,2016,No,No,No,-74.2627569,4.733779
Colombia-Cundinamarca-Nimaima,2016-02-06,municipality,zika_confirmed_clinic,CO0002,0,cases,Colombia,Cundinamarca,2016,No,Yes,No,-74.38555,5.12645
Colombia-Cundinamarca-Nimaima,2016-01-23,municipality,zika_suspected,CO0003,1,cases,Colombia,Cundinamarca,2016,No,No,No,-74.38555,5.12645
Colombia-Cundinamarca-Nocaima,2016-05-14,municipality,zika_suspected_clinic,CO0004,13,cases,Colombia,Cundinamarca,2016,No,No,No,-74.380305,5.069435
Colombia-Cundinamarca-Nocaima,2016-05-14,municipality,zika_confirmed_laboratory,CO0001,1,cases,Colombia,Cundinamarca,2016,No,Yes,No,-74.380305,5.069435
Colombia-Cundinamarca-Pacho,2016-06-25,municipality,zika_confirmed_laboratory,CO0001,3,cases,Colombia,Cundinamarca,2016,No,Yes,No,-74.152868,5.137918
Colombia-Cundinamarca-Paratebueno,2016-02-13,municipality,zika_suspected,CO0003,3,cases,Colombia,Cundinamarca,2016,No,No,No,-73.209608,4.376587
Colombia-Cundinamarca-Pasca,2016-06-18,municipality,zika_suspected_clinic,CO0004,0,cases,Colombia,Cundinamarca,2016,No,No,No,-74.299995,4.308498
Colombia-Cundinamarca-Puerto_Salgar,2016-02-13,municipality,zika_suspected,CO0003,0,cases,Colombia,Cundinamarca,2016,No,No,No,-74.652693,5.467414
Colombia-Cundinamarca-Puerto_Salgar,2016-03-12,municipality,zika_suspected,CO0003,0,cases,Colombia,Cundinamarca,2016,No,No,No,-74.652693,5.467414
Colombia-Cundinamarca-Quebradanegra,2016-05-14,municipality,zika_suspected,CO0003,0,cases,Colombia,Cundinamarca,2016,No,No,No,-74.479244,5.117721
Colombia-Cundinamarca-San_Antonio_Del_Tequendama,2016-02-20,municipality,zika_confirmed_clinic,CO0002,0,cases,Colombia,Cundinamarca,2016,No,Yes,No,-74.3521491,4.6162489
Colombia-Cundinamarca-San_Bernardo,2016-02-27,municipality,zika_confirmed_clinic,CO0002,0,cases,Colombia,Cundinamarca,2016,No,Yes,No,-74.421566,4.179444
Colombia-Cundinamarca-San_Juan_De_Rio_Seco,2016-02-06,municipality,zika_confirmed_clinic,CO0002,0,cases,Colombia,Cundinamarca,2016,No,Yes,No,-74.622303,4.846891
Colombia-Cundinamarca-Sasaima,2016-04-02,municipality,zika_confirmed_laboratory,CO0001,2,cases,Colombia,Cundinamarca,2016,No,Yes,No,-74.434042,4.963945
Colombia-Cundinamarca-Sesquile,2016-05-14,municipality,zika_suspected_clinic,CO0004,0,cases,Colombia,Cundinamarca,2016,No,No,No,-73.796925,5.045268
Colombia-Cundinamarca-Sopo,2016-05-28,municipality,zika_confirmed_laboratory,CO0001,0,cases,Colombia,Cundinamarca,2016,No,Yes,No,-73.9410709,4.908732
Colombia-Cundinamarca-Sopo,2016-03-12,municipality,zika_suspected,CO0003,0,cases,Colombia,Cundinamarca,2016,No,No,No,-73.9410709,4.908732
Colombia-Cundinamarca-Suesca,2016-04-16,municipality,zika_suspected_clinic,CO0004,0,cases,Colombia,Cundinamarca,2016,No,No,No,-73.798632,5.103929
Colombia-Cundinamarca-Susa,2016-01-30,municipality,zika_confirmed_laboratory,CO0001,0,cases,Colombia,Cundinamarca,2016,No,Yes,No,-73.814707,5.455099
Colombia-Cundinamarca-Tausa,2016-01-23,municipality,zika_confirmed_laboratory,CO0001,0,cases,Colombia,Cundinamarca,2016,No,Yes,No,-73.8865409,5.196182
Colombia-Cundinamarca-Tena,2016-05-14,municipality,zika_suspected_clinic,CO0004,72,cases,Colombia,Cundinamarca,2016,No,No,No,-74.389576,4.655623
Colombia-Cundinamarca-Tenjo,2016-04-23,municipality,zika_confirmed_clinic,CO0002,0,cases,Colombia,Cundinamarca,2016,No,Yes,No,-74.145663,4.871884
Colombia-Cundinamarca-Ubaque,2016-03-05,municipality,zika_confirmed_laboratory,CO0001,0,cases,Colombia,Cundinamarca,2016,No,Yes,No,-73.93468,4.482842
Colombia-Cundinamarca-Unknown,2016-04-16,municipality,zika_suspected,CO0003,44,cases,Colombia,Cundinamarca,2016,No,No,No,-74.0300122,5.026003
Colombia-Cundinamarca-Viani,2016-02-20,municipality,zika_confirmed_clinic,CO0002,0,cases,Colombia,Cundinamarca,2016,No,Yes,No,-74.560517,4.875749
Colombia-Cundinamarca-Villagomez,2016-06-11,municipality,zika_suspected_clinic,CO0004,0,cases,Colombia,Cundinamarca,2016,No,No,No,-74.195169,5.2733
Colombia-Cundinamarca-Villapinzon,2016-06-11,municipality,zika_suspected,CO0003,0,cases,Colombia,Cundinamarca,2016,No,No,No,-73.5946249,5.215209
Colombia-Cundinamarca-Viota,2016-02-20,municipality,zika_confirmed_laboratory,CO0001,1,cases,Colombia,Cundinamarca,2016,No,Yes,No,-74.522394,4.438829
Colombia-Cundinamarca-Yacopi,2016-01-30,municipality,zika_suspected,CO0003,0,cases,Colombia,Cundinamarca,2016,No,No,No,-74.338524,5.460014
Colombia-Cundinamarca-Zipaquira,2016-03-12,municipality,zika_confirmed_clinic,CO0002,0,cases,Colombia,Cundinamarca,2016,No,Yes,No,-73.990955,5.021476
Colombia-Cundinamarca-Zipaquira,2016-05-14,municipality,zika_suspected_clinic,CO0004,0,cases,Colombia,Cundinamarca,2016,No,No,No,-73.990955,5.021476
Colombia-Guainia-Cacahual,2016-03-12,municipality,zika_suspected,CO0003,0,cases,Colombia,Guainia,2016,No,No,No,-67.41529,3.51425
Colombia-Guainia-La_Guadalupe,2016-04-09,municipality,zika_suspected_clinic,CO0004,0,cases,Colombia,Guainia,2016,No,No,No,-67.0464591,1.3648401
Colombia-Guajira-El_Molino,2016-04-30,municipality,zika_confirmed_laboratory,CO0001,1,cases,Colombia,Guajira,2016,No,Yes,No,-72.92527,10.6524699
Colombia-Guajira-Uribia,2016-02-13,municipality,zika_confirmed_clinic,CO0002,0,cases,Colombia,Guajira,2016,No,Yes,No,-72.2659391,11.7149978
Colombia-Guajira-Urumita,2016-05-14,municipality,zika_suspected,CO0003,0,cases,Colombia,Guajira,2016,No,No,No,-73.013282,10.559313
Colombia-Guajira-Villanueva,2016-06-11,municipality,zika_suspected_clinic,CO0004,10,cases,Colombia,Guajira,2016,No,No,No,-72.981936,10.603721
Colombia-Huila-Aipe,2016-05-28,municipality,zika_confirmed_laboratory,CO0001,30,cases,Colombia,Huila,2016,No,Yes,No,-75.241066,3.222095
Colombia-Huila-Aipe,2016-04-09,municipality,zika_confirmed_laboratory,CO0001,20,cases,Colombia,Huila,2016,No,Yes,No,-75.241066,3.222095
Colombia-Huila-La_Argentina,2016-02-27,municipality,zika_confirmed_clinic,CO0002,0,cases,Colombia,Huila,2016,No,Yes,No,-75.978781,2.198444
Colombia-Huila-Oporapa,2016-03-26,municipality,zika_suspected_clinic,CO0004,0,cases,Colombia,Huila,2016,No,No,No,-75.994964,2.0259109
Colombia-Huila-Palermo,2016-02-13,municipality,zika_suspected,CO0003,0,cases,Colombia,Huila,2016,No,No,No,-75.433419,2.886246
Colombia-Huila-Pital,2016-06-18,municipality,zika_confirmed_laboratory,CO0001,0,cases,Colombia,Huila,2016,No,Yes,No,-75.803848,2.266733
Colombia-Huila-San_Agustin,2016-02-20,municipality,zika_confirmed_laboratory,CO0001,0,cases,Colombia,Huila,2016,No,Yes,No,-76.270749,1.879826
Colombia-Huila-Suaza,2016-04-09,municipality,zika_suspected_clinic,CO0004,81,cases,Colombia,Huila,2016,No,No,No,-75.794971,1.97688
Colombia-Huila-Teruel,2016-01-16,municipality,zika_confirmed_clinic,CO0002,0,cases,Colombia,Huila,2016,No,Yes,No,-75.568503,2.741117
Colombia-Huila-Timana,2016-02-06,municipality,zika_confirmed_clinic,CO0002,0,cases,Colombia,Huila,2016,No,Yes,No,-75.932847,1.974415
Colombia-Magdalena-El_Banco,2016-03-12,municipality,zika_confirmed_laboratory,CO0001,0,cases,Colombia,Magdalena,2016,No,Yes,No,-73.973864,9.003507
Colombia-Magdalena-El_Pinon,2016-02-27,municipality,zika_confirmed_clinic,CO0002,0,cases,Colombia,Magdalena,2016,No,Yes,No,-74.823769,10.404038
Colombia-Magdalena-Fundacion,2016-05-07,municipality,zika_suspected_clinic,CO0004,95,cases,Colombia,Magdalena,2016,No,No,No,-74.1819979,10.517179
Colombia-Magdalena-Fundacion,2016-02-20,municipality,zika_suspected,CO0003,90,cases,Colombia,Magdalena,2016,No,No,No,-74.1819979,10.517179
Colombia-Magdalena-Puebloviejo,2016-05-21,municipality,zika_suspected_clinic,CO0004,14,cases,Colombia,Magdalena,2016,No,No,No,-74.284038,10.992353
Colombia-Magdalena-Salamina,2016-02-27,municipality,zika_confirmed_laboratory,CO0001,0,cases,Colombia,Magdalena,2016,No,Yes,No,-74.794526,10.4911049
Colombia-Magdalena-San_Zenon,2016-01-23,municipality,zika_confirmed_clinic,CO0002,0,cases,Colombia,Magdalena,2016,No,Yes,No,-74.4991189,9.245741
Colombia-Meta-Castilla_La_Nueva,2016-02-13,municipality,zika_confirmed_laboratory,CO0001,0,cases,Colombia,Meta,2016,No,Yes,No,-73.690164,3.827834
Colombia-Meta-Cumaral,2016-02-20,municipality,zika_confirmed_clinic,CO0002,0,cases,Colombia,Meta,2016,No,Yes,No,-73.488052,4.271262
Colombia-Meta-El_Castillo,2016-02-20,municipality,zika_confirmed_laboratory,CO0001,0,cases,Colombia,Meta,2016,No,Yes,No,-73.794394,3.564252
Colombia-Meta-El_Dorado,2016-06-04,municipality,zika_suspected_clinic,CO0004,30,cases,Colombia,Meta,2016,No,No,No,-72.87197,2.7792
Colombia-Meta-Fuente_De_Oro,2016-03-26,municipality,zika_suspected,CO0003,17,cases,Colombia,Meta,2016,No,No,No,-73.619979,3.462502
Colombia-Meta-Lejanias,2016-03-12,municipality,zika_confirmed_clinic,CO0002,0,cases,Colombia,Meta,2016,No,Yes,No,-74.024393,3.526086
Colombia-Meta-Lejanias,2016-01-09,municipality,zika_suspected,CO0003,0,cases,Colombia,Meta,2016,No,No,No,-74.024393,3.526086
Colombia-Meta-Puerto_Lleras,2016-05-28,municipality,zika_confirmed_laboratory,CO0001,0,cases,Colombia,Meta,2016,No,Yes,No,-73.369542,3.272414
Colombia-Meta-San_Carlos_De_Guaroa,2016-01-23,municipality,zika_confirmed_clinic,CO0002,0,cases,Colombia,Meta,2016,No,Yes,No,-73.241921,3.710353
Colombia-Meta-San_Juan_De_Arama,2016-05-14,municipality,zika_suspected_clinic,CO0004,47,cases,Colombia,Meta,2016,No,No,No,-73.88941,3.34645
Colombia-Meta-San_Juanito,2016-03-26,municipality,zika_suspected_clinic,CO0004,0,cases,Colombia,Meta,2016,No,No,No,-73.6761889,4.457915
Colombia-Meta-Vistahermosa,2016-04-09,municipality,zika_suspected,CO0003,39,cases,Colombia,Meta,2016,No,No,No,-73.752512,3.127883
Colombia-Narino-Aldana,2016-01-16,municipality,zika_confirmed_laboratory,CO0001,0,cases,Colombia,Narino,2016,No,Yes,No,-77.700425,0.882544
Colombia-Narino-Ancuya,2016-05-28,municipality,zika_suspected_clinic,CO0004,0,cases,Colombia,Narino,2016,No,No,No,-77.515158,1.26295
Colombia-Narino-Buesaco,2016-04-09,municipality,zika_suspected,CO0003,1,cases,Colombia,Narino,2016,No,No,No,-77.155676,1.384512
Colombia-Narino-Consaca,2016-01-09,municipality,zika_confirmed_clinic,CO0002,0,cases,Colombia,Narino,2016,No,Yes,No,-77.465658,1.207624
Colombia-Narino-Cordoba,2016-04-16,municipality,zika_suspected,CO0003,0,cases,Colombia,Narino,2016,No,No,No,-77.517836,0.853916
Colombia-Narino-Cuaspud,2016-03-19,municipality,zika_suspected,CO0003,0,cases,Colombia,Narino,2016,No,No,No,-77.729755,0.863262
Colombia-Narino-Cumbitara,2016-03-05,municipality,zika_confirmed_clinic,CO0002,0,cases,Colombia,Narino,2016,No,Yes,No,-77.3253,1.67696
Colombia-Narino-El_Charco,2016-03-19,municipality,zika_confirmed_laboratory,CO0001,2,cases,Colombia,Narino,2016,No,Yes,No,-78.110211,2.479311
Colombia-Narino-Ipiales,2016-06-18,municipality,zika_suspected,CO0003,1,cases,Colombia,Narino,2016,No,No,No,-77.639504,0.825542
Colombia-Narino-Ipiales,2016-01-16,municipality,zika_confirmed_laboratory,CO0001,0,cases,Colombia,Narino,2016,No,Yes,No,-77.639504,0.825542
Colombia-Narino-La_Florida,2016-04-09,municipality,zika_confirmed_laboratory,CO0001,0,cases,Colombia,Narino,2016,No,Yes,No,-77.404419,1.298637
Colombia-Narino-Mallama,2016-03-12,municipality,zika_confirmed_laboratory,CO0001,0,cases,Colombia,Narino,2016,No,Yes,No,-77.8645669,1.140872
Colombia-Narino-Olaya_Herrera,2016-03-26,municipality,zika_confirmed_laboratory,CO0001,0,cases,Colombia,Narino,2016,No,Yes,No,-78.3159411,2.2740962
Colombia-Narino-Potosi,2016-05-21,municipality,zika_suspected,CO0003,0,cases,Colombia,Narino,2016,No,No,No,-77.572656,0.806982
Colombia-Narino-Puerres,2016-01-23,municipality,zika_confirmed_clinic,CO0002,0,cases,Colombia,Narino,2016,No,Yes,No,-77.505809,0.884723
Colombia-Narino-Pupiales,2016-03-19,municipality,zika_confirmed_laboratory,CO0001,0,cases,Colombia,Narino,2016,No,Yes,No,-77.641002,0.871676
Colombia-Narino-Roberto_Payan,2016-04-09,municipality,zika_suspected,CO0003,0,cases,Colombia,Narino,2016,No,No,No,-78.25312,1.718516
Colombia-Narino-San_Andres_De_Tumaco,2016-03-05,municipality,zika_suspected,CO0003,0,cases,Colombia,Narino,2016,No,No,No,-78.791265,1.787434
Colombia-Narino-San_Pablo,2016-05-21,municipality,zika_confirmed_laboratory,CO0001,0,cases,Colombia,Narino,2016,No,Yes,No,-77.012855,1.669165
Colombia-Narino-San_Pablo,2016-05-07,municipality,zika_suspected,CO0003,1,cases,Colombia,Narino,2016,No,No,No,-77.012855,1.669165
Colombia-Narino-Sandona,2016-04-16,municipality,zika_confirmed_laboratory,CO0001,0,cases,Colombia,Narino,2016,No,Yes,No,-77.472045,1.28326
Colombia-Narino-Santacruz,2016-02-13,municipality,zika_suspected,CO0003,0,cases,Colombia,Narino,2016,No,No,No,-77.25114,1.51723
Colombia-Narino-Tangua,2016-04-30,municipality,zika_confirmed_laboratory,CO0001,0,cases,Colombia,Narino,2016,No,Yes,No,-77.3942409,1.094597
Colombia-Narino-Tuquerres,2016-01-09,municipality,zika_confirmed_laboratory,CO0001,0,cases,Colombia,Narino,2016,No,Yes,No,-77.618641,1.085739
Colombia-Narino-Yacuanquer,2016-03-05,municipality,zika_confirmed_laboratory,CO0001,0,cases,Colombia,Narino,2016,No,Yes,No,-77.400055,1.11567
Colombia-Norte_Santander-Cachira,2016-02-13,municipality,zika_confirmed_laboratory,CO0001,0,cases,Colombia,Norte_Santander,2016,No,Yes,No,-73.048544,7.741865
Colombia-Norte_Santander-Chinacota,2016-02-27,municipality,zika_confirmed_laboratory,CO0001,0,cases,Colombia,Norte_Santander,2016,No,Yes,No,-72.60247,7.600193
Colombia-Norte_Santander-Durania,2016-04-16,municipality,zika_confirmed_laboratory,CO0001,1,cases,Colombia,Norte_Santander,2016,No,Yes,No,-72.6562189,7.714685
Colombia-Norte_Santander-Hacari,2016-06-04,municipality,zika_suspected_clinic,CO0004,0,cases,Colombia,Norte_Santander,2016,No,No,No,-73.145874,8.322157
Colombia-Norte_Santander-Pamplona,2016-05-28,municipality,zika_suspected_clinic,CO0004,0,cases,Colombia,Norte_Santander,2016,No,No,No,-72.6503369,7.37823
Colombia-Norte_Santander-Pamplona,2016-04-02,municipality,zika_suspected_clinic,CO0004,0,cases,Colombia,Norte_Santander,2016,No,No,No,-72.6503369,7.37823
Colombia-Norte_Santander-Puerto_Santander,2016-04-02,municipality,zika_confirmed_laboratory,CO0001,19,cases,Colombia,Norte_Santander,2016,No,Yes,No,-72.408389,8.361323
Colombia-Norte_Santander-Puerto_Santander,2016-06-25,municipality,zika_confirmed_laboratory,CO0001,30,cases,Colombia,Norte_Santander,2016,No,Yes,No,-72.408389,8.361323
Colombia-Norte_Santander-Ragonvalia,2016-04-23,municipality,zika_confirmed_laboratory,CO0001,3,cases,Colombia,Norte_Santander,2016,No,Yes,No,-72.476121,7.577843
Colombia-Norte_Santander-Sardinata,2016-03-05,municipality,zika_suspected,CO0003,0,cases,Colombia,Norte_Santander,2016,No,No,No,-72.799937,8.085092
Colombia-Putumayo-Orito,2016-01-16,municipality,zika_confirmed_laboratory,CO0001,1,cases,Colombia,Putumayo,2016,No,Yes,No,-76.880163,0.67688
Colombia-Putumayo-San_Francisco,2016-06-18,municipality,zika_suspected_clinic,CO0004,0,cases,Colombia,Putumayo,2016,No,No,No,-76.8756949,1.176194
Colombia-Putumayo-Santiago,2016-04-02,municipality,zika_suspected,CO0003,0,cases,Colombia,Putumayo,2016,No,No,No,-77.002405,1.147148
Colombia-Putumayo-Santiago,2016-01-16,municipality,zika_confirmed_laboratory,CO0001,0,cases,Colombia,Putumayo,2016,No,Yes,No,-77.002405,1.147148
Colombia-Putumayo-Sibundoy,2016-04-02,municipality,zika_suspected,CO0003,0,cases,Colombia,Putumayo,2016,No,No,No,-76.921225,1.202514
Colombia-Putumayo-Unknown,2016-04-30,municipality,zika_suspected,CO0003,7,cases,Colombia,Putumayo,2016,No,No,No,-75.5276699,0.4359506
Colombia-Quindio-Buenavista,2016-02-20,municipality,zika_confirmed_clinic,CO0002,0,cases,Colombia,Quindio,2016,No,Yes,No,-75.740163,4.358752
Colombia-Quindio-Circasia,2016-02-06,municipality,zika_confirmed_clinic,CO0002,0,cases,Colombia,Quindio,2016,No,Yes,No,-75.635595,4.616094
Colombia-Quindio-Genova,2016-02-06,municipality,zika_suspected,CO0003,0,cases,Colombia,Quindio,2016,No,No,No,-75.79224,4.20558
Colombia-Quindio-Unknown,2016-04-30,municipality,zika_suspected_clinic,CO0004,0,cases,Colombia,Quindio,2016,No,No,No,-75.667356,4.4610191
Colombia-Risaralda-Apia,2016-05-21,municipality,zika_confirmed_laboratory,CO0001,0,cases,Colombia,Risaralda,2016,No,Yes,No,-75.940865,5.106663
Colombia-Risaralda-Balboa,2016-06-04,municipality,zika_confirmed_laboratory,CO0001,2,cases,Colombia,Risaralda,2016,No,Yes,No,-75.958017,4.9497479
Colombia-Risaralda-Dosquebradas,2016-06-04,municipality,zika_confirmed_laboratory,CO0001,19,cases,Colombia,Risaralda,2016,No,Yes,No,-75.6805678,4.8318256
Colombia-Risaralda-La_Virginia,2016-04-02,municipality,zika_suspected_clinic,CO0004,295,cases,Colombia,Risaralda,2016,No,No,No,-75.870743,4.88917
Colombia-Risaralda-Marsella,2016-06-25,municipality,zika_suspected,CO0003,0,cases,Colombia,Risaralda,2016,No,No,No,-75.737551,4.937236
Colombia-Risaralda-Mistrato,2016-05-28,municipality,zika_suspected_clinic,CO0004,1,cases,Colombia,Risaralda,2016,No,No,No,-75.882128,5.2990769
Colombia-Risaralda-Mistrato,2016-03-19,municipality,zika_suspected_clinic,CO0004,0,cases,Colombia,Risaralda,2016,No,No,No,-75.882128,5.2990769
Colombia-San_Andres-Unknown,2016-01-30,municipality,zika_confirmed_clinic,CO0002,0,cases,Colombia,San_Andres,2016,No,Yes,No,-81.7075787,12.5450153
Colombia-Santander-Aratoca,2016-06-04,municipality,zika_suspected,CO0003,2,cases,Colombia,Santander,2016,No,No,No,-73.017346,6.695018
Colombia-Santander-Barichara,2016-03-12,municipality,zika_suspected,CO0003,0,cases,Colombia,Santander,2016,No,No,No,-73.223409,6.635849
Colombia-Santander-Barrancabermeja,2016-01-30,municipality,zika_confirmed_clinic,CO0002,47,cases,Colombia,Santander,2016,No,Yes,No,-73.8519319,7.0617085
Colombia-Santander-Bucaramanga,2016-04-23,municipality,zika_confirmed_laboratory,CO0001,27,cases,Colombia,Santander,2016,No,Yes,No,-73.1227416,7.119349
Colombia-Santander-Carcasi,2016-01-30,municipality,zika_confirmed_laboratory,CO0001,0,cases,Colombia,Santander,2016,No,Yes,No,-72.6267809,6.626642
Colombia-Santander-Charta,2016-06-04,municipality,zika_suspected,CO0003,2,cases,Colombia,Santander,2016,No,No,No,-72.96805,7.280931
Colombia-Santander-El_Carmen_De_Chucuri,2016-05-21,municipality,zika_suspected_clinic,CO0004,0,cases,Colombia,Santander,2016,No,No,No,-73.511598,6.698923
Colombia-Santander-El_Guacamayo,2016-01-09,municipality,zika_confirmed_clinic,CO0002,0,cases,Colombia,Santander,2016,No,Yes,No,-73.497651,6.245051
Colombia-Santander-Enciso,2016-04-09,municipality,zika_suspected,CO0003,0,cases,Colombia,Santander,2016,No,No,No,-72.69964,6.669771
Colombia-Santander-Enciso,2016-05-28,municipality,zika_suspected_clinic,CO0004,0,cases,Colombia,Santander,2016,No,No,No,-72.69964,6.669771
Colombia-Santander-Giron,2016-03-19,municipality,zika_suspected,CO0003,0,cases,Colombia,Santander,2016,No,No,No,-73.1692652,7.0739678
Colombia-Santander-Guaca,2016-04-09,municipality,zika_suspected_clinic,CO0004,0,cases,Colombia,Santander,2016,No,No,No,-72.856219,6.876227
Colombia-Santander-Guavata,2016-06-11,municipality,zika_confirmed_laboratory,CO0001,0,cases,Colombia,Santander,2016,No,Yes,No,-73.701641,5.955225
Colombia-Santander-Hato,2016-03-26,municipality,zika_suspected_clinic,CO0004,0,cases,Colombia,Santander,2016,No,No,No,-73.308154,6.544078
Colombia-Santander-La_Paz,2016-02-27,municipality,zika_confirmed_laboratory,CO0001,1,cases,Colombia,Santander,2016,No,Yes,No,-73.57585,6.1898099
Colombia-Santander-Landazuri,2016-03-26,municipality,zika_suspected_clinic,CO0004,0,cases,Colombia,Santander,2016,No,No,No,-73.809258,6.2194589
Colombia-Santander-Paramo,2016-04-23,municipality,zika_suspected,CO0003,2,cases,Colombia,Santander,2016,No,No,No,-73.170777,6.416886
Colombia-Santander-Pinchote,2016-01-23,municipality,zika_confirmed_laboratory,CO0001,0,cases,Colombia,Santander,2016,No,Yes,No,-73.1727,6.53247
Colombia-Santander-Pinchote,2016-04-02,municipality,zika_suspected,CO0003,1,cases,Colombia,Santander,2016,No,No,No,-73.1727,6.53247
Colombia-Santander-San_Andres,2016-01-16,municipality,zika_suspected,CO0003,2,cases,Colombia,Santander,2016,No,No,No,-72.848242,6.811888
Colombia-Santander-San_Joaquin,2016-02-13,municipality,zika_confirmed_clinic,CO0002,0,cases,Colombia,Santander,2016,No,Yes,No,-72.868082,6.427803
Colombia-Santander-Santa_Barbara,2016-03-05,municipality,zika_suspected,CO0003,0,cases,Colombia,Santander,2016,No,No,No,-72.906681,6.990524
Colombia-Santander-Santa_Barbara,2016-06-18,municipality,zika_suspected,CO0003,0,cases,Colombia,Santander,2016,No,No,No,-72.906681,6.990524
Colombia-Santander-Simacota,2016-01-16,municipality,zika_confirmed_laboratory,CO0001,0,cases,Colombia,Santander,2016,No,Yes,No,-73.337534,6.443588
Colombia-Santander-Simacota,2016-03-12,municipality,zika_suspected,CO0003,2,cases,Colombia,Santander,2016,No,No,No,-73.337534,6.443588
Colombia-Santander-Suaita,2016-01-09,municipality,zika_confirmed_laboratory,CO0001,0,cases,Colombia,Santander,2016,No,Yes,No,-73.44277,6.10134
Colombia-Santander-Unknown,2016-02-20,municipality,zika_confirmed_clinic,CO0002,0,cases,Colombia,Santander,2016,No,Yes,No,-73.6536209,6.6437076
Colombia-Santander-Valle_De_San_Jose,2016-04-02,municipality,zika_confirmed_laboratory,CO0001,0,cases,Colombia,Santander,2016,No,Yes,No,-73.143786,6.448144
Colombia-Santander-Valle_De_San_Jose,2016-01-09,municipality,zika_confirmed_laboratory,CO0001,0,cases,Colombia,Santander,2016,No,Yes,No,-73.143786,6.448144
Colombia-Santander-Vetas,2016-02-06,municipality,zika_confirmed_laboratory,CO0001,0,cases,Colombia,Santander,2016,No,Yes,No,-72.8710739,7.30921
Colombia-Santander-Villanueva,2016-01-23,municipality,zika_confirmed_clinic,CO0002,0,cases,Colombia,Santander,2016,No,Yes,No,-73.173988,6.669466
Colombia-Sucre-Coloso,2016-02-06,municipality,zika_suspected,CO0003,13,cases,Colombia,Sucre,2016,No,No,No,-75.355767,9.4909459
Colombia-Sucre-Corozal,2016-04-09,municipality,zika_suspected_clinic,CO0004,132,cases,Colombia,Sucre,2016,No,No,No,-75.294467,9.321697
Colombia-Sucre-El_Roble,2016-03-05,municipality,zika_confirmed_clinic,CO0002,0,cases,Colombia,Sucre,2016,No,Yes,No,-75.19554,9.10192
Colombia-Sucre-El_Roble,2016-04-16,municipality,zika_suspected,CO0003,8,cases,Colombia,Sucre,2016,No,No,No,-75.19554,9.10192
Colombia-Sucre-Morroa,2016-05-28,municipality,zika_suspected,CO0003,0,cases,Colombia,Sucre,2016,No,No,No,-75.307733,9.332193
Colombia-Sucre-Palmito,2016-04-16,municipality,zika_suspected,CO0003,8,cases,Colombia,Sucre,2016,No,No,No,-75.540823,9.333659
Colombia-Sucre-Sampues,2016-02-27,municipality,zika_confirmed_clinic,CO0002,29,cases,Colombia,Sucre,2016,No,Yes,No,-75.381105,9.18357
Colombia-Sucre-San_Onofre,2016-04-09,municipality,zika_suspected,CO0003,11,cases,Colombia,Sucre,2016,No,No,No,-75.519872,9.74084
Colombia-Sucre-Sincelejo,2016-04-09,municipality,zika_suspected_clinic,CO0004,792,cases,Colombia,Sucre,2016,No,No,No,-75.3905567,9.3045773
Colombia-Sucre-Sucre,2016-01-23,municipality,zika_suspected,CO0003,1,cases,Colombia,Sucre,2016,No,No,No,-74.723283,8.813977
Colombia-Sucre-Unknown,2016-04-02,municipality,zika_confirmed_laboratory,CO0001,0,cases,Colombia,Sucre,2016,No,Yes,No,-74.723283,8.813977
Colombia-Tolima-Alvarado,2016-02-13,municipality,zika_confirmed_clinic,CO0002,0,cases,Colombia,Tolima,2016,No,Yes,No,-74.953211,4.566843
Colombia-Tolima-Alvarado,2016-02-27,municipality,zika_suspected,CO0003,37,cases,Colombia,Tolima,2016,No,No,No,-74.953211,4.566843
Colombia-Tolima-Cajamarca,2016-04-30,municipality,zika_suspected_clinic,CO0004,0,cases,Colombia,Tolima,2016,No,No,No,-75.426844,4.441792
Colombia-Tolima-Falan,2016-03-05,municipality,zika_confirmed_clinic,CO0002,0,cases,Colombia,Tolima,2016,No,Yes,No,-74.95201,5.1237899
Colombia-Tolima-Flandes,2016-01-16,municipality,zika_suspected,CO0003,0,cases,Colombia,Tolima,2016,No,No,No,-74.812294,4.2867309
Colombia-Tolima-Flandes,2016-03-05,municipality,zika_confirmed_clinic,CO0002,204,cases,Colombia,Tolima,2016,No,Yes,No,-74.812294,4.2867309
Colombia-Tolima-Herveo,2016-04-30,municipality,zika_suspected,CO0003,1,cases,Colombia,Tolima,2016,No,No,No,-75.17573,5.0801299
Colombia-Tolima-Herveo,2016-04-09,municipality,zika_confirmed_laboratory,CO0001,0,cases,Colombia,Tolima,2016,No,Yes,No,-75.17573,5.0801299
Colombia-Tolima-Honda,2016-01-16,municipality,zika_suspected,CO0003,8,cases,Colombia,Tolima,2016,No,No,No,-74.737081,5.205118
Colombia-Tolima-Honda,2016-06-18,municipality,zika_confirmed_laboratory,CO0001,6,cases,Colombia,Tolima,2016,No,Yes,No,-74.737081,5.205118
Colombia-Tolima-Purificacion,2016-04-09,municipality,zika_suspected,CO0003,0,cases,Colombia,Tolima,2016,No,No,No,-74.931367,3.856684
Colombia-Tolima-Roncesvalles,2016-02-20,municipality,zika_suspected,CO0003,0,cases,Colombia,Tolima,2016,No,No,No,-75.6048047,4.0103171
Colombia-Tolima-Roncesvalles,2016-05-07,municipality,zika_confirmed_laboratory,CO0001,0,cases,Colombia,Tolima,2016,No,Yes,No,-75.6048047,4.0103171
Colombia-Tolima-Saldana,2016-03-12,municipality,zika_suspected,CO0003,0,cases,Colombia,Tolima,2016,No,No,No,-75.017821,3.929018
Colombia-Tolima-San_Luis,2016-04-02,municipality,zika_suspected,CO0003,0,cases,Colombia,Tolima,2016,No,No,No,-75.095082,4.133543
Colombia-Tolima-Unknown,2016-02-20,municipality,zika_suspected,CO0003,84,cases,Colombia,Tolima,2016,No,No,No,-75.1545381,4.0925168
Colombia-Tolima-Valle_De_San_Juan,2016-06-11,municipality,zika_confirmed_laboratory,CO0001,2,cases,Colombia,Tolima,2016,No,Yes,No,-75.1164469,4.197955
Colombia-Tolima-Venadillo,2016-05-21,municipality,zika_suspected,CO0003,0,cases,Colombia,Tolima,2016,No,No,No,-74.931161,4.714815
Colombia-Tolima-Villarrica,2016-01-09,municipality,zika_confirmed_laboratory,CO0001,0,cases,Colombia,Tolima,2016,No,Yes,No,-74.600817,3.936661
Colombia-Valle_Del_Cauca-Argelia,2016-05-28,municipality,zika_suspected,CO0003,14,cases,Colombia,Valle_Del_Cauca,2016,No,No,No,-76.121514,4.727773
Colombia-Valle_Del_Cauca-Candelaria,2016-01-16,municipality,zika_suspected,CO0003,1,cases,Colombia,Valle_Del_Cauca,2016,No,No,No,-76.348857,3.414112
Colombia-Valle_Del_Cauca-El_Aguila,2016-05-21,municipality,zika_suspected_clinic,CO0004,10,cases,Colombia,Valle_Del_Cauca,2016,No,No,No,-76.04299,4.9091699
Colombia-Valle_Del_Cauca-El_Dovio,2016-04-02,municipality,zika_confirmed_laboratory,CO0001,0,cases,Colombia,Valle_Del_Cauca,2016,No,Yes,No,-76.237442,4.5082319
Colombia-Valle_Del_Cauca-Ginebra,2016-06-25,municipality,zika_suspected,CO0003,0,cases,Colombia,Valle_Del_Cauca,2016,No,No,No,-76.269279,3.725234
Colombia-Valle_Del_Cauca-La_Union,2016-06-04,municipality,zika_suspected_clinic,CO0004,126,cases,Colombia,Valle_Del_Cauca,2016,No,No,No,-76.103616,4.5334899
Colombia-Valle_Del_Cauca-La_Victoria,2016-03-05,municipality,zika_suspected,CO0003,166,cases,Colombia,Valle_Del_Cauca,2016,No,No,No,-76.036071,4.5241049
Colombia-Valle_Del_Cauca-Obando,2016-04-16,municipality,zika_suspected_clinic,CO0004,0,cases,Colombia,Valle_Del_Cauca,2016,No,No,No,-75.972669,4.575601
Colombia-Valle_Del_Cauca-Obando,2016-05-07,municipality,zika_suspected,CO0003,109,cases,Colombia,Valle_Del_Cauca,2016,No,No,No,-75.972669,4.575601
Colombia-Valle_Del_Cauca-Pradera,2016-02-13,municipality,zika_confirmed_laboratory,CO0001,0,cases,Colombia,Valle_Del_Cauca,2016,No,Yes,No,-76.242275,3.418186
Colombia-Valle_Del_Cauca-Toro,2016-06-11,municipality,zika_suspected,CO0003,0,cases,Colombia,Valle_Del_Cauca,2016,No,No,No,-76.078593,4.611287
Colombia-Valle_Del_Cauca-Unknown,2016-01-30,municipality,zika_confirmed_clinic,CO0002,0,cases,Colombia,Valle_Del_Cauca,2016,No,Yes,No,-76.6412712,3.8008893
Colombia-Valle_Del_Cauca-Vijes,2016-05-28,municipality,zika_suspected,CO0003,0,cases,Colombia,Valle_Del_Cauca,2016,No,No,No,-76.443177,3.698185
Colombia-Vaupes-Pacoa,2016-04-09,municipality,zika_confirmed_laboratory,CO0001,0,cases,Colombia,Vaupes,2016,No,Yes,No,-71.22293,0.05442
Colombia-Vichada-Santa_Rosalia,2016-05-28,municipality,zika_suspected,CO0003,4,cases,Colombia,Vichada,2016,No,No,No,-70.8649609,5.135381
Colombia-Vichada-Unknown,2016-01-23,municipality,zika_suspected,CO0003,0,cases,Colombia,Vichada,2016,No,No,No,-69.2877535,4.4234452
Dominican_Republic,2016-06-04,country,zika_suspected_cumulative,DO0005,3771,cases,Dominican_Republic,NA,2016,No,No,No,-70.162651,18.735693
Dominican_Republic-Baoruco,2016-04-02,province,total_zika_new_suspected,DO0001,0,cases,Dominican_Republic,Baoruco,2016,No,No,No,-71.4182249,18.4879898
Dominican_Republic-Dajabon,2016-05-14,province,zika_suspected_4weeks,DO0024,2,cases,Dominican_Republic,Dajabon,2016,No,No,No,-71.7086514,19.5499241
Dominican_Republic-Distrito_Nacional,2016-04-30,province,microcephaly_confirmed_cumulative,DO0023,0,cases,Dominican_Republic,Distrito_Nacional,2016,No,Yes,Yes,-69.9312117,18.4860575
Dominican_Republic-Distrito_Nacional,2016-03-26,province,zika_confirmed_pcr_cumulative,DO0006,8,cases,Dominican_Republic,Distrito_Nacional,2016,No,Yes,No,-69.9312117,18.4860575
Dominican_Republic-Distrito_Nacional,2016-05-07,province,gbs_reported,DO0010,1,cases,Dominican_Republic,Distrito_Nacional,2016,No,No,No,-69.9312117,18.4860575
Dominican_Republic-Duarte,2016-05-07,province,gbs_reported_4weeks,DO0025,0,cases,Dominican_Republic,Duarte,2016,No,No,No,-70.0270004,19.2090823
Dominican_Republic-Espaillat,2016-04-30,province,microcephaly_suspected_cumulative,DO0022,0,cases,Dominican_Republic,Espaillat,2016,No,No,Yes,-70.2786775,19.6277658
Dominican_Republic-Hermanas_Mirabal,2016-03-26,province,gbs_reported_4weeks,DO0025,0,cases,Dominican_Republic,Hermanas_Mirabal,2016,No,No,No,-70.3513235,19.3747559
Dominican_Republic-La_Romana,2016-04-30,province,zika_suspected_4weeks,DO0024,13,cases,Dominican_Republic,La_Romana,2016,No,No,No,-68.9658817,18.4338645
Dominican_Republic-Maria_Trinidad_Sanchez,2016-04-09,province,zika_confirmed_pregnant_cumulative,DO0017,0,cases,Dominican_Republic,Maria_Trinidad_Sanchez,2016,Yes,Yes,No,-69.8514439,19.3734597
Dominican_Republic-Maria_Trinidad_Sanchez,2016-05-21,province,microcephaly_suspected,DO0021,0,cases,Dominican_Republic,Maria_Trinidad_Sanchez,2016,No,No,Yes,-69.8514439,19.3734597
Dominican_Republic-Maria_Trinidad_Sanchez,2016-04-16,province,microcephaly_suspected_cumulative,DO0022,0,cases,Dominican_Republic,Maria_Trinidad_Sanchez,2016,No,No,Yes,-69.8514439,19.3734597
Dominican_Republic-Monte_Cristi,2016-03-26,province,zika_suspected_cumulative,DO0005,4,cases,Dominican_Republic,Monte_Cristi,2016,No,No,No,-71.6406361,19.8473452
Dominican_Republic-Peravia,2016-06-04,province,zika_suspected_4weeks,DO0024,11,cases,Dominican_Republic,Peravia,2016,No,No,No,-70.3335887,18.2786594
Dominican_Republic-Peravia,2016-05-28,province,gbs_reported_cumulative,DO0014,9,cases,Dominican_Republic,Peravia,2016,No,No,No,-70.3335887,18.2786594
Dominican_Republic-Peravia,2016-04-23,province,zika_suspected_pregnant,DO0008,0,cases,Dominican_Republic,Peravia,2016,Yes,No,No,-70.3335887,18.2786594
Dominican_Republic-Samana,2016-05-07,province,zika_suspected_4weeks,DO0024,9,cases,Dominican_Republic,Samana,2016,No,No,No,-69.3324518,19.2080704
Dominican_Republic-San_Jose_de_Ocoa,2016-05-07,province,zika_confirmed_pregnant_cumulative,DO0017,0,cases,Dominican_Republic,San_Jose_de_Ocoa,2016,Yes,Yes,No,-70.5041816,18.543858
Dominican_Republic-Santiago-Rodriguez,2016-04-02,municipality,zika_suspected_cumulative,DO0005,0,cases,Dominican_Republic,Santiago,2016,No,No,No,-71.3398271,19.4786174
Dominican_Republic-Valverde,2016-05-07,province,microcephaly_suspected,DO0021,0,cases,Dominican_Republic,Valverde,2016,No,No,Yes,-70.980331,19.5881221
Dominican_Republic-Valverde,2016-04-23,province,gbs_reported_cumulative,DO0014,1,cases,Dominican_Republic,Valverde,2016,No,No,No,-70.980331,19.5881221
Ecuador-Los_Rios-Buena_Fe,2016-04-13,county,total_zika_confirmed_autochthonous,EC0003,2,cases,Ecuador,Los_Rios,2016,No,Yes,No,-79.4872619,-0.8857721
Ecuador-Manabi-Manta,2016-04-13,county,total_zika_confirmed_autochthonous,EC0003,1,cases,Ecuador,Manabi,2016,No,Yes,No,-80.7089101,-0.9676533
Ecuador-Pichincha-Mejia,2016-05-04,county,total_zika_confirmed_autochthonous,EC0003,1,cases,Ecuador,Pichincha,2016,No,Yes,No,-78.5130727,-0.2178787
Ecuador-Santo_Domingo_de_los_Tsachilas-La_Concordia,2016-04-20,county,total_zika_confirmed_autochthonous,EC0003,8,cases,Ecuador,Santo_Domingo_de_los_Tsachilas,2016,No,Yes,No,-79.391605,0.0091672
El_Salvador,2016-01-16,country,cumulative_suspected_age_50-59,SV0008,185,cases,El_Salvador,NA,2016,No,No,No,-88.89653,13.794185
El_Salvador-Sonsonate,2016-02-27,department,cumulative_suspected_total,SV0010,56,cases,El_Salvador,Sonsonate,2016,No,No,No,-89.7239097,13.7113876
Guatemala-Sacatepequez,2016-02-23,municipality,total_zika_confirmed_pregnant_cumulative,GT0010,1,cases,Guatemala,Sacatepequez,2016,Yes,Yes,No,-90.7152749,14.6110576
Mexico-Aguascalientes,2016-01-30,state,yearly_cumulative_male,MX0003,0,cases,Mexico,Aguascalientes,2016,No,No,No,-102.2915677,21.8852562
Mexico-Baja_California_Sur,2015-12-19,state,yearly_cumulative_male,MX0003,0,cases,Mexico,Baja_California_Sur,2015,No,No,No,-111.6660725,26.0444446
Mexico-Baja_California_Sur,2016-03-05,state,weekly_zika_confirmed,MX0001,0,cases,Mexico,Baja_California_Sur,2016,No,Yes,No,-111.6660725,26.0444446
Mexico-Campeche,2016-02-27,state,yearly_cumulative_female,MX0002,0,cases,Mexico,Campeche,2016,No,No,No,-90.2618068,18.931225
Mexico-Chihuahua,2016-01-09,state,weekly_zika_confirmed,MX0001,0,cases,Mexico,Chihuahua,2016,No,Yes,No,-106.0691004,28.6329957
Mexico-Coahuila_de_Zaragoza,2015-12-19,state,yearly_cumulative_male,MX0003,0,cases,Mexico,Coahuila_de_Zaragoza,2015,No,No,No,-101.7068294,27.058676
Mexico-Colima,2016-06-04,state,yearly_cumulative_male,MX0003,0,cases,Mexico,Colima,2016,No,No,No,-104.0072348,19.1222634
Mexico-Durango,2016-01-23,state,yearly_cumulative_female,MX0002,0,cases,Mexico,Durango,2016,No,No,No,-104.6531759,24.0277202
Mexico-Guanajuato,2015-12-05,state,yearly_cumulative_female,MX0002,0,cases,Mexico,Guanajuato,2015,No,No,No,-101.2573586,21.0190145
Mexico-Quintana_Roo,2015-12-12,state,yearly_cumulative_female,MX0002,0,cases,Mexico,Quintana_Roo,2015,No,No,No,-88.4791376,19.1817393
Mexico-Tabasco,2016-05-28,state,weekly_zika_confirmed,MX0001,3,cases,Mexico,Tabasco,2016,No,Yes,No,-92.6189273,17.8409173
Mexico-Tamaulipas,2016-02-13,state,yearly_cumulative_male,MX0003,0,cases,Mexico,Tamaulipas,2016,No,No,No,-98.8362755,24.26694
Mexico-Zacatecas,2016-06-11,state,yearly_cumulative_female,MX0002,0,cases,Mexico,Zacatecas,2016,No,No,No,-102.5832539,22.7709249
Panama-Metro-San_Felipe,2016-04-11,county,Zika_confirmed_laboratory_2016,PA0002,2,cases,Panama,Metro,2016,No,Yes,No,-79.508363,9.0492628
Panama-San_Miguelito-Villa_Guadalupe,2016-04-11,county,Zika_confirmed_laboratory_2015,PA0001,0,cases,Panama,San_Miguelito,2016,No,Yes,No,-79.4893613,9.0337874
Puerto_Rico,NA,territory,zika_confirmed_cumulative_2015-2016,PR0006,1501,cases,Puerto_Rico,NA,NA,No,Yes,No,-66.590149,18.220833
Puerto_Rico,NA,territory,zika_confirmed_pregnant_cumulative_2015-2016,PR0007,1,cases,Puerto_Rico,NA,NA,Yes,Yes,No,-66.590149,18.220833
Puerto_Rico,NA,territory,zika_confirmed_cumulative_2016,PR0003,192,cases,Puerto_Rico,NA,NA,No,Yes,No,-66.590149,18.220833
United_States_Virgin_Islands,2016-03-22,territory,confirmed_age_20to39,VI0006,4,cases,United_States_Virgin_Islands,NA,2016,No,Yes,No,-64.896335,18.335765
United_States_Virgin_Islands,2016-02-16,territory,confirmed_headache,VI0019,1,cases,United_States_Virgin_Islands,NA,2016,No,Yes,No,-64.896335,18.335765
United_States_Virgin_Islands,2016-04-19,territory,confirmed_age_over59,VI0008,1,cases,United_States_Virgin_Islands,NA,2016,No,Yes,No,-64.896335,18.335765
United_States_Virgin_Islands,2016-06-14,territory,confirmed_arthralgia,VI0014,18,cases,United_States_Virgin_Islands,NA,2016,No,Yes,No,-64.896335,18.335765